{
    "locations": {
        "comisaria": {
            "id": "marcador_1",
            "name": "Comisaría de Mejía",
            "title": "Comisaría Nacional de Mejía",
            "description": "Estación de policía principal del distrito",
            "address": "Avenida Tambo S/N, Ensenada 04420",
            "coordinates": [-71.9050, -17.1022],
            "imageMarker": "assets/comisaria.webp",
            "imageModal": "assets/comisaria.webp",
            "estimatedTime": "5 mins"
        },
        "plaza": {
            "id": "marcador_2",
            "name": "Plaza de Mejía",
            "title": "Plaza Principal de Mejía",
            "description": "Plaza central histórica del distrito",
            "address": "C. Nueva s/n, Arequipa 04420",
            "coordinates": [-71.9046, -17.1017],
            "imageMarker": "assets/plaza_mejia.webp",
            "imageModal": "assets/plaza_mejia.webp",
            "estimatedTime": "5 mins"
        }
    },
    "common_areas": {
        "portico_ingreso":{
            "marker_image": "assets/portico_ingreso_marker.webp",
            "title": "Pórtico de Ingreso",
            "image": "assets/portico_ingreso.webp",
            "coordinates":[-71.89699, -17.1000]
        },
        "parque": {
            "marker_image": "assets/parque_marker.webp",
            "title": "Parque I",
            "image": "assets/parque.webp",
            "coordinates":[ -71.89772, -17.09926]
        },
        "club_house": {
            "marker_image": "assets/club_house_marker.webp",
            "title": "Club House",
            "image": "assets/club_house.webp",
            "coordinates":[ -71.89821, -17.09873]
        }
    }
}
